{
  "destination_info": {
    "name": "Nashville",
    "location": {
      "lat": 36.1626638,
      "lng": -86.7816016
    },
    "place_id": "ChIJPZDrEzLsZIgRoNrpodC5P30"
  },
  "lodging": [
    {
      "name": "Placemakr Wedgewood-Houston",
      "address": "321 Hart St, Nashville",
      "location": {
        "lat": 36.142144,
        "lng": -86.76435219999999
      },
      "place_id": "ChIJKaJ1OxJnZIgR03lXLZYNTOs"
    },
    {
      "name": "The Gallatin Hotel",
      "address": "2510 Gallatin Ave, Nashville",
      "location": {
        "lat": 36.1960522,
        "lng": -86.7425219
      },
      "place_id": "ChIJB7Wx9N9nZIgRMXezEgJZmOg"
    },
    {
      "name": "Placemakr Premier SoBro",
      "address": "205 Demonbreun St, Nashville",
      "location": {
        "lat": 36.1597331,
        "lng": -86.7740748
      },
      "place_id": "ChIJz5KAhlxmZIgRA4Pykixj1LU"
    },
    {
      "name": "Millennium Hotel Maxwell House Nashville",
      "address": "2025 Rosa L Parks Blvd, Nashville",
      "location": {
        "lat": 36.1893579,
        "lng": -86.7998283
      },
      "place_id": "ChIJBYlbmRdnZIgRYuSoMFsyS2I"
    },
    {
      "name": "The Russell",
      "address": "819 Russell St, Nashville",
      "location": {
        "lat": 36.1740944,
        "lng": -86.7565393
      },
      "place_id": "ChIJz2aZ4VhnZIgRgPVQ8bUUUxw"
    },
    {
      "name": "Waymore's Guest House & Casual Club",
      "address": "811 Main St, Nashville",
      "location": {
        "lat": 36.175936,
        "lng": -86.757756
      },
      "place_id": "ChIJ4xbLtDRmZIgRMIXz9xP9SW0"
    },
    {
      "name": "Knights Inn Nashville",
      "address": "99 Spring St, Nashville",
      "location": {
        "lat": 36.1765108,
        "lng": -86.7756751
      },
      "place_id": "ChIJV808tqxnZIgRHQ5VIMluia0"
    },
    {
      "name": "The Gilmore, an AvantStay Hotel",
      "address": "1121 Gilmore Ave, Nashville",
      "location": {
        "lat": 36.1245,
        "lng": -86.78919400000001
      },
      "place_id": "ChIJ1_iZTS5kZIgRdshaAtPGQTs"
    },
    {
      "name": "Reunion Hotel",
      "address": "105 S 11th St, Nashville",
      "location": {
        "lat": 36.1772003,
        "lng": -86.7497832
      },
      "place_id": "ChIJ7XzYaqRnZIgRA-b5VfckbR0"
    },
    {
      "name": "Extended Stay America Premier Suites - Nashville - Vanderbilt",
      "address": "3311 West End Avenue, Nashville",
      "location": {
        "lat": 36.1400492,
        "lng": -86.81770499999999
      },
      "place_id": "ChIJ6xcvGKxmZIgRzOD83CdtoDQ"
    },
    {
      "name": "Comfort Inn & Suites Nashville Downtown - Stadium",
      "address": "303 Interstate Dr, Nashville",
      "location": {
        "lat": 36.1688338,
        "lng": -86.7669109
      },
      "place_id": "ChIJI0aMz05mZIgRD6rKCyKQnBw"
    },
    {
      "name": "Hillside Crossing Nashville",
      "address": "717 Spence Ln, Nashville",
      "location": {
        "lat": 36.1362817,
        "lng": -86.72341589999999
      },
      "place_id": "ChIJIVVfb6VpZIgRXgjf_g1R8pk"
    },
    {
      "name": "Best Western Plus Sunrise Inn",
      "address": "825 Murfreesboro Pike, Nashville",
      "location": {
        "lat": 36.1335666,
        "lng": -86.7240595
      },
      "place_id": "ChIJSzvEB7VoZIgRvAojPXY70Zo"
    },
    {
      "name": "The Eighteen, a Locale Aparthotel",
      "address": "18 Mcferrin Ave, Nashville",
      "location": {
        "lat": 36.1762481,
        "lng": -86.7556627
      },
      "place_id": "ChIJuS2WPXxnZIgREo-JsLXQqwA"
    },
    {
      "name": "The Dive Motel",
      "address": "1414 Dickerson Pike, Nashville",
      "location": {
        "lat": 36.1992419,
        "lng": -86.771036
      },
      "place_id": "ChIJUxSMrHBnZIgRwummkfy8Rho"
    },
    {
      "name": "Hampton Inn & Suites Nashville-Vanderbilt-Elliston Place",
      "address": "2330 Elliston Pl, Nashville",
      "location": {
        "lat": 36.1495119,
        "lng": -86.80719409999999
      },
      "place_id": "ChIJv_k7CrxmZIgRwau0B0RluXI"
    },
    {
      "name": "The 121 Hotel by AvantStay",
      "address": "121 30th Ave N, Nashville",
      "location": {
        "lat": 36.1448478,
        "lng": -86.8153991
      },
      "place_id": "ChIJuyTOIK5mZIgRua_nCxCXzmY"
    },
    {
      "name": "Ironwood Grove",
      "address": "999 Riverside Dr, Nashville",
      "location": {
        "lat": 36.1865291,
        "lng": -86.7255084
      },
      "place_id": "ChIJX4wYANJpZIgRZKAUOicF4co"
    },
    {
      "name": "Margaritaville Hotel Nashville",
      "address": "425 Rep. John Lewis Way S, Nashville",
      "location": {
        "lat": 36.1556505,
        "lng": -86.7754733
      },
      "place_id": "ChIJX7MOBV5mZIgR-rar5HrNVM4"
    },
    {
      "name": "Mint House Nashville \u2013 Hillsboro Village",
      "address": "1700 21st Ave S, Nashville",
      "location": {
        "lat": 36.1372342,
        "lng": -86.8005732
      },
      "place_id": "ChIJPWeTZ7tnZIgRBwUDsaoy_Lk"
    }
  ],
  "attractions": [
    {
      "name": "Tootsies Orchid Lounge",
      "address": "422 Broadway, Nashville",
      "location": {
        "lat": 36.1609016,
        "lng": -86.77829229999999
      },
      "place_id": "ChIJo0_dOVlmZIgR1LQajfg9viM"
    },
    {
      "name": "Walk of Fame Park",
      "address": "121 4th Ave S, Nashville",
      "location": {
        "lat": 36.1592226,
        "lng": -86.7769529
      },
      "place_id": "ChIJ0RjxHVxmZIgRswEefJUstpw"
    },
    {
      "name": "Musicians Hall of Fame and Museum",
      "address": "401 Gay St, Nashville",
      "location": {
        "lat": 36.1678327,
        "lng": -86.7823859
      },
      "place_id": "ChIJL7O-21dmZIgRaAWY7QV7RIo"
    },
    {
      "name": "Grand Ole Opry",
      "address": "600 Opry Mills Dr, Nashville",
      "location": {
        "lat": 36.2068571,
        "lng": -86.69210849999999
      },
      "place_id": "ChIJVSpg989pZIgRdex84bjnfic"
    },
    {
      "name": "Honky Tonk Highway",
      "address": "501 Broadway, Nashville",
      "location": {
        "lat": 36.1603925,
        "lng": -86.7784322
      },
      "place_id": "ChIJ7QEyJu5nZIgRJwrOkb-YMRk"
    },
    {
      "name": "Johnny Cash Museum",
      "address": "119 3rd Ave S, Nashville",
      "location": {
        "lat": 36.1609385,
        "lng": -86.77575709999999
      },
      "place_id": "ChIJVVVVVYVvZIgR9SLLnlliRbA"
    },
    {
      "name": "Nashville Music Garden",
      "address": "400-498 Demonbreun St, Nashville",
      "location": {
        "lat": 36.15904,
        "lng": -86.77642499999999
      },
      "place_id": "ChIJNx_vG1xmZIgRRkKXcCasoQk"
    },
    {
      "name": "2nd Avenue Historic District",
      "address": "2nd Ave N, Nashville",
      "location": {
        "lat": 36.1609599,
        "lng": -86.7754568
      },
      "place_id": "ChIJXcMkrbtnZIgRAFZ2jn24jTY"
    },
    {
      "name": "Ryman Auditorium",
      "address": "116 5th Ave N, Nashville",
      "location": {
        "lat": 36.1612481,
        "lng": -86.7784714
      },
      "place_id": "ChIJletJO1lmZIgRq0UiSZV5AGM"
    },
    {
      "name": "Deep Well Trailhead - Warner Park",
      "address": "Nashville",
      "location": {
        "lat": 36.0748119,
        "lng": -86.8812782
      },
      "place_id": "ChIJI7EoaZRiZIgRE_fb728X4Vs"
    },
    {
      "name": "Cheekwood",
      "address": "1200 Forrest Park Dr, Nashville",
      "location": {
        "lat": 36.0884471,
        "lng": -86.8759749
      },
      "place_id": "ChIJa4wvovBiZIgRI6Lt_1xPLsI"
    },
    {
      "name": "Parmer Park",
      "address": "578 Leake Ave, Nashville",
      "location": {
        "lat": 36.1028901,
        "lng": -86.8606142
      },
      "place_id": "ChIJOxUiB65jZIgRhAQ3Drl2FQA"
    },
    {
      "name": "Brookmeade Greenway, Trailhead.",
      "address": "7004 Charlotte Pike, Nashville",
      "location": {
        "lat": 36.1302351,
        "lng": -86.9047219
      },
      "place_id": "ChIJ35cF2v2JZIgRdKwjXmLcLbM"
    },
    {
      "name": "Nashville downtown",
      "address": "Nashville",
      "location": {
        "lat": 36.1626638,
        "lng": -86.7816016
      },
      "place_id": "ChIJd_LNHzBnZIgR89SF0bduiCg"
    },
    {
      "name": "Legends of Country Music Museum and Nashville Souvenirs",
      "address": "2613A McGavock Pk, Nashville",
      "location": {
        "lat": 36.2175638,
        "lng": -86.69818629999999
      },
      "place_id": "ChIJC71ijNVpZIgRWj3unqlFnjI"
    },
    {
      "name": "Fort Nashborough",
      "address": "170 1st Ave N, Nashville",
      "location": {
        "lat": 36.1642682,
        "lng": -86.7754305
      },
      "place_id": "ChIJAVmmalpmZIgRz8FhEAQlZGY"
    },
    {
      "name": "Sudekum Planetarium",
      "address": "800 Fort Negley Blvd, Nashville",
      "location": {
        "lat": 36.1464958,
        "lng": -86.7760665
      },
      "place_id": "ChIJt8ez9WRmZIgREdOgKAAM0P0"
    },
    {
      "name": "Country music hall of fame rotunda",
      "address": "401 Demonbreun St, Nashville",
      "location": {
        "lat": 36.1582613,
        "lng": -86.7761189
      },
      "place_id": "ChIJQVcmozFnZIgRi8CiPZVgXlI"
    },
    {
      "name": "Printers Alley",
      "address": "Printers Alley Between Union St and, Commerce St, Nashville",
      "location": {
        "lat": 36.1646491,
        "lng": -86.77879539999999
      },
      "place_id": "ChIJBR26vVlmZIgRHKQ25ERIv6A"
    },
    {
      "name": "General Jackson Showboat",
      "address": "2812 Opryland Dr, Nashville",
      "location": {
        "lat": 36.2037358,
        "lng": -86.69516639999999
      },
      "place_id": "ChIJ_6fb7M5pZIgRKUwtyfFQ4FM"
    }
  ],
  "restaurants": [
    {
      "name": "Two Hands",
      "address": "606 8th Ave S, Nashville",
      "location": {
        "lat": 36.151472,
        "lng": -86.77913819999999
      },
      "place_id": "ChIJO71UejhnZIgRiJMuLJSuVtw"
    },
    {
      "name": "four daughters market",
      "address": "141 Charles E Davis Blvd, Nashville",
      "location": {
        "lat": 36.1534252,
        "lng": -86.7615534
      },
      "place_id": "ChIJRc0MMM5nZIgRWZsT6trLP2w"
    },
    {
      "name": "Hoppy Bird Restaurant & Bar",
      "address": "305 Korean Veterans Blvd 1st Floor, Nashville",
      "location": {
        "lat": 36.1571521,
        "lng": -86.7740332
      },
      "place_id": "ChIJ81wXGuBnZIgRPAklV0stmDw"
    },
    {
      "name": "Carol Ann\u2019s",
      "address": "407 Murfreesboro Pike, Nashville",
      "location": {
        "lat": 36.144051,
        "lng": -86.7489027
      },
      "place_id": "ChIJV514JhtmZIgRunlT73k60h4"
    },
    {
      "name": "Mona Italian Restaurant",
      "address": "20 Academy Pl, Nashville",
      "location": {
        "lat": 36.1544114,
        "lng": -86.7651944
      },
      "place_id": "ChIJLWtEAQBnZIgRiztQbUCfGa8"
    },
    {
      "name": "The Yellow Table Caf\u00e9",
      "address": "1101 Chapel Ave #107, Nashville",
      "location": {
        "lat": 36.1889221,
        "lng": -86.7378627
      },
      "place_id": "ChIJwWmf0htpZIgRp5NY_MSLRKw"
    },
    {
      "name": "Cafe Roze",
      "address": "1115 Porter Rd, Nashville",
      "location": {
        "lat": 36.1885958,
        "lng": -86.7291202
      },
      "place_id": "ChIJT-JXAG9oZIgReXQDEafdpIE"
    },
    {
      "name": "Noko",
      "address": "701 Porter Rd, Nashville",
      "location": {
        "lat": 36.1825877,
        "lng": -86.732717
      },
      "place_id": "ChIJSf0U2fdpZIgRJ5adKZHG0Bg"
    },
    {
      "name": "Little Miss Mao",
      "address": "2635 Gallatin Pike, Nashville",
      "location": {
        "lat": 36.1969444,
        "lng": -86.7424345
      },
      "place_id": "ChIJgRxonDZnZIgRfNCjnRv8Tw8"
    },
    {
      "name": "Hearts",
      "address": "914 Gallatin Ave, Nashville",
      "location": {
        "lat": 36.1868956,
        "lng": -86.7473529
      },
      "place_id": "ChIJH4Bb6MFnZIgR2LOX1bhC7R8"
    },
    {
      "name": "Two Hands",
      "address": "606 8th Ave S, Nashville",
      "location": {
        "lat": 36.151472,
        "lng": -86.77913819999999
      },
      "place_id": "ChIJO71UejhnZIgRiJMuLJSuVtw"
    },
    {
      "name": "Copper Branch Vegan & Vegetarian Restaurant",
      "address": "601 Church St, Nashville",
      "location": {
        "lat": 36.1624728,
        "lng": -86.7815954
      },
      "place_id": "ChIJfXmNtc9nZIgRa_Acmw7c6N0"
    },
    {
      "name": "The Restaurant at W Nashville",
      "address": "300 12th Ave S, Nashville",
      "location": {
        "lat": 36.1535962,
        "lng": -86.7853475
      },
      "place_id": "ChIJnZY3gGpnZIgRtElSUKUkxsA"
    },
    {
      "name": "The Diner Nashville",
      "address": "200 3rd Ave S, Nashville",
      "location": {
        "lat": 36.1594741,
        "lng": -86.7744708
      },
      "place_id": "ChIJ5wpyfVxmZIgRzqgMZq_erNY"
    },
    {
      "name": "Caf\u00e9 Intermezzo - Nashville",
      "address": "205 Demonbreun Street, 2nd Ave S, Nashville",
      "location": {
        "lat": 36.1596758,
        "lng": -86.7739359
      },
      "place_id": "ChIJX1dYu6BnZIgRZzGfgsep0Vo"
    },
    {
      "name": "Germantown Caf\u00e9",
      "address": "1200 5th Ave N, Nashville",
      "location": {
        "lat": 36.175456,
        "lng": -86.78786
      },
      "place_id": "ChIJHWNN6v1mZIgRcT3pJLUiyt4"
    },
    {
      "name": "The Southern V",
      "address": "1200 Buchanan St, Nashville",
      "location": {
        "lat": 36.1803895,
        "lng": -86.80705999999999
      },
      "place_id": "ChIJFwyGGOpmZIgRYBLHR_HKaMU"
    },
    {
      "name": "Sky Blue Cafe",
      "address": "700 Fatherland St, Nashville",
      "location": {
        "lat": 36.1713889,
        "lng": -86.7588889
      },
      "place_id": "ChIJEdheMTRmZIgRA0CapUw9w4o"
    },
    {
      "name": "The Hampton Social - Nashville",
      "address": "201 1st Ave S, Nashville",
      "location": {
        "lat": 36.1599591,
        "lng": -86.7732544
      },
      "place_id": "ChIJ2zNcAORnZIgRDegDF_fkiW0"
    },
    {
      "name": "etch",
      "address": "303 Demonbreun St, Nashville",
      "location": {
        "lat": 36.1591806,
        "lng": -86.77508999999999
      },
      "place_id": "ChIJb3lqe1xmZIgR9f1AAIPhV1M"
    },
    {
      "name": "MCG Warehouse",
      "address": "975 Main St, Nashville",
      "location": {
        "lat": 36.1782735,
        "lng": -86.7523764
      },
      "place_id": "ChIJfyz5_uZnZIgREL1BDWFVe4Y"
    },
    {
      "name": "Caf\u00e9 Intermezzo - Nashville",
      "address": "205 Demonbreun Street, 2nd Ave S, Nashville",
      "location": {
        "lat": 36.1596758,
        "lng": -86.7739359
      },
      "place_id": "ChIJX1dYu6BnZIgRZzGfgsep0Vo"
    },
    {
      "name": "Sky Blue Cafe",
      "address": "700 Fatherland St, Nashville",
      "location": {
        "lat": 36.1713889,
        "lng": -86.7588889
      },
      "place_id": "ChIJEdheMTRmZIgRA0CapUw9w4o"
    },
    {
      "name": "Noir Kitchen & Cocktails",
      "address": "501 Main St, Nashville",
      "location": {
        "lat": 36.1730699,
        "lng": -86.765289
      },
      "place_id": "ChIJRcFPe9pnZIgR-eUETDGMbnw"
    },
    {
      "name": "The Healing Garden",
      "address": "712 Main St, Nashville",
      "location": {
        "lat": 36.1746039,
        "lng": -86.7599817
      },
      "place_id": "ChIJeS-0GBpnZIgR2GM8dk23NCQ"
    },
    {
      "name": "Hearts",
      "address": "914 Gallatin Ave, Nashville",
      "location": {
        "lat": 36.1868956,
        "lng": -86.7473529
      },
      "place_id": "ChIJH4Bb6MFnZIgR2LOX1bhC7R8"
    },
    {
      "name": "Alebrije - Nashville Mexican restaurant",
      "address": "604 Gallatin Ave #203, Nashville",
      "location": {
        "lat": 36.1828953,
        "lng": -86.7490162
      },
      "place_id": "ChIJkRb2v0VnZIgRnCr888qUufE"
    },
    {
      "name": "Copper Branch Vegan & Vegetarian Restaurant",
      "address": "601 Church St, Nashville",
      "location": {
        "lat": 36.1624728,
        "lng": -86.7815954
      },
      "place_id": "ChIJfXmNtc9nZIgRa_Acmw7c6N0"
    },
    {
      "name": "417 Union",
      "address": "417 Union St, Nashville",
      "location": {
        "lat": 36.1645791,
        "lng": -86.7803802
      },
      "place_id": "ChIJxYzaO1hmZIgROwZYPkIWqpI"
    },
    {
      "name": "Germantown Caf\u00e9",
      "address": "1200 5th Ave N, Nashville",
      "location": {
        "lat": 36.175456,
        "lng": -86.78786
      },
      "place_id": "ChIJHWNN6v1mZIgRcT3pJLUiyt4"
    },
    {
      "name": "Sky Blue Cafe",
      "address": "700 Fatherland St, Nashville",
      "location": {
        "lat": 36.1713889,
        "lng": -86.7588889
      },
      "place_id": "ChIJEdheMTRmZIgRA0CapUw9w4o"
    },
    {
      "name": "Noir Kitchen & Cocktails",
      "address": "501 Main St, Nashville",
      "location": {
        "lat": 36.1730699,
        "lng": -86.765289
      },
      "place_id": "ChIJRcFPe9pnZIgR-eUETDGMbnw"
    },
    {
      "name": "E+ROSE - 12 South",
      "address": "2235 10th Ave S, Nashville",
      "location": {
        "lat": 36.1270163,
        "lng": -86.78635779999999
      },
      "place_id": "ChIJx6py8x1lZIgRuNQrabaLg_o"
    },
    {
      "name": "The Butter Milk Ranch",
      "address": "2407 12th Ave S, Nashville",
      "location": {
        "lat": 36.12580519999999,
        "lng": -86.789454
      },
      "place_id": "ChIJ6zL0W7dlZIgRZfib2FK1qeA"
    },
    {
      "name": "Urban Grub",
      "address": "2506 12th Ave S, Nashville",
      "location": {
        "lat": 36.124974,
        "lng": -86.789155
      },
      "place_id": "ChIJI8ZqVC5kZIgRTUtWeHRCw8s"
    },
    {
      "name": "The Henry",
      "address": "2803 12th Ave S #105, Nashville",
      "location": {
        "lat": 36.1221729,
        "lng": -86.790554
      },
      "place_id": "ChIJ_1hEpsdlZIgRHfem9-ct9s8"
    },
    {
      "name": "The Cookery",
      "address": "1827 12th Ave S, Nashville",
      "location": {
        "lat": 36.1350877,
        "lng": -86.78920529999999
      },
      "place_id": "ChIJ0dvSXYJmZIgR0IJjCA5Xri4"
    },
    {
      "name": "The Yellow Table Caf\u00e9",
      "address": "1101 Chapel Ave #107, Nashville",
      "location": {
        "lat": 36.1889221,
        "lng": -86.7378627
      },
      "place_id": "ChIJwWmf0htpZIgRp5NY_MSLRKw"
    },
    {
      "name": "Sky Blue Cafe",
      "address": "700 Fatherland St, Nashville",
      "location": {
        "lat": 36.1713889,
        "lng": -86.7588889
      },
      "place_id": "ChIJEdheMTRmZIgRA0CapUw9w4o"
    },
    {
      "name": "Noir Kitchen & Cocktails",
      "address": "501 Main St, Nashville",
      "location": {
        "lat": 36.1730699,
        "lng": -86.765289
      },
      "place_id": "ChIJRcFPe9pnZIgR-eUETDGMbnw"
    },
    {
      "name": "The Healing Garden",
      "address": "712 Main St, Nashville",
      "location": {
        "lat": 36.1746039,
        "lng": -86.7599817
      },
      "place_id": "ChIJeS-0GBpnZIgR2GM8dk23NCQ"
    },
    {
      "name": "Graze Nashville",
      "address": "1888 Eastland Ave, Nashville",
      "location": {
        "lat": 36.1823472,
        "lng": -86.7355754
      },
      "place_id": "ChIJK8I1wXtoZIgRUY-lCBNULSo"
    },
    {
      "name": "AVO",
      "address": "4 City Blvd #104, Nashville",
      "location": {
        "lat": 36.1520766,
        "lng": -86.81953039999999
      },
      "place_id": "ChIJQXiH47RmZIgRoxorPavBRyo"
    },
    {
      "name": "Central Bar + Kitchen",
      "address": "2555 West End Avenue, Nashville",
      "location": {
        "lat": 36.1451483,
        "lng": -86.80921769999999
      },
      "place_id": "ChIJ3-snKbtmZIgR2tWOBKQgwTE"
    },
    {
      "name": "Woodlands Indian Vegetarian Cuisine",
      "address": "3415 West End Avenue, Nashville",
      "location": {
        "lat": 36.1379459,
        "lng": -86.8197558
      },
      "place_id": "ChIJX2URC6tmZIgRnbEvobvTeCE"
    },
    {
      "name": "Common Ground - Sylvan Park",
      "address": "345 40th Ave N, Nashville",
      "location": {
        "lat": 36.1522848,
        "lng": -86.8340449
      },
      "place_id": "ChIJc6UGfTVhZIgRvbl0ot4is6s"
    },
    {
      "name": "E+ROSE Wellness Cafe - West Nashville at OneC1TY",
      "address": "4 City Blvd #108, Nashville",
      "location": {
        "lat": 36.1517242,
        "lng": -86.8195356
      },
      "place_id": "ChIJkYhGAq5nZIgRL73BZ6LXG8o"
    },
    {
      "name": "Copper Branch Vegan & Vegetarian Restaurant",
      "address": "601 Church St, Nashville",
      "location": {
        "lat": 36.1624728,
        "lng": -86.7815954
      },
      "place_id": "ChIJfXmNtc9nZIgRa_Acmw7c6N0"
    },
    {
      "name": "The Restaurant at W Nashville",
      "address": "300 12th Ave S, Nashville",
      "location": {
        "lat": 36.1535962,
        "lng": -86.7853475
      },
      "place_id": "ChIJnZY3gGpnZIgRtElSUKUkxsA"
    },
    {
      "name": "The Diner Nashville",
      "address": "200 3rd Ave S, Nashville",
      "location": {
        "lat": 36.1594741,
        "lng": -86.7744708
      },
      "place_id": "ChIJ5wpyfVxmZIgRzqgMZq_erNY"
    },
    {
      "name": "Radish Kitchen",
      "address": "5055 Broadway, Nashville",
      "location": {
        "lat": 36.1605243,
        "lng": -86.7795737
      },
      "place_id": "ChIJLQlFTyZnZIgR1BgyjCiVX9s"
    },
    {
      "name": "Caf\u00e9 Intermezzo - Nashville",
      "address": "205 Demonbreun Street, 2nd Ave S, Nashville",
      "location": {
        "lat": 36.1596758,
        "lng": -86.7739359
      },
      "place_id": "ChIJX1dYu6BnZIgRZzGfgsep0Vo"
    },
    {
      "name": "CAFE 24/7",
      "address": "888 Murfreesboro Pike, Nashville",
      "location": {
        "lat": 36.1318334,
        "lng": -86.7171704
      },
      "place_id": "ChIJ_zAQ9LVpZIgRpQ7VaazPN2M"
    },
    {
      "name": "Ramzys Meat & Three",
      "address": "306 E Thompson Ln, Nashville",
      "location": {
        "lat": 36.1255669,
        "lng": -86.7123477
      },
      "place_id": "ChIJvfIcKKVvZIgR3HEuexxLHfE"
    },
    {
      "name": "Cledis Burgers & Beer Garden",
      "address": "1011 Elm Hill Pike, Nashville",
      "location": {
        "lat": 36.1438099,
        "lng": -86.7364297
      },
      "place_id": "ChIJ4au46tZpZIgRtDjnBy2PsHU"
    },
    {
      "name": "The Lost Paddy Irish Pub and Restaurant",
      "address": "715 Spence Ln, Nashville",
      "location": {
        "lat": 36.1365371,
        "lng": -86.72386879999999
      },
      "place_id": "ChIJ42ZFUKJpZIgRFhu7FrN9UJ8"
    },
    {
      "name": "Tarboosh Restaurant Bar and Hookah",
      "address": "619 Millwood Dr, Nashville",
      "location": {
        "lat": 36.1298337,
        "lng": -86.7145472
      },
      "place_id": "ChIJJ6JqP7RpZIgREMaGyXfSWS0"
    },
    {
      "name": "CAFE 24/7",
      "address": "888 Murfreesboro Pike, Nashville",
      "location": {
        "lat": 36.1318334,
        "lng": -86.7171704
      },
      "place_id": "ChIJ_zAQ9LVpZIgRpQ7VaazPN2M"
    },
    {
      "name": "Ramadan Restaurant",
      "address": "1041 Murfreesboro Pike, Nashville",
      "location": {
        "lat": 36.1271831,
        "lng": -86.7132037
      },
      "place_id": "ChIJY731MTJvZIgRwXFWyQNAXAM"
    },
    {
      "name": "Halal restaurant",
      "address": "888b Murfreesboro Pike, Nashville",
      "location": {
        "lat": 36.1318334,
        "lng": -86.7171704
      },
      "place_id": "ChIJXzEttkhpZIgRmDu76ijAx7s"
    },
    {
      "name": "Country Cafe",
      "address": "605 Murfreesboro Pike, Nashville",
      "location": {
        "lat": 36.1410829,
        "lng": -86.73996389999999
      },
      "place_id": "ChIJ88d7RKhoZIgRjhhrrCvANug"
    },
    {
      "name": "Madina restaurant",
      "address": "611 Murfreesboro Pike, Nashville",
      "location": {
        "lat": 36.1407793,
        "lng": -86.7400069
      },
      "place_id": "ChIJqZn93BlpZIgRek7BRrCmoIY"
    },
    {
      "name": "Sky Blue Cafe",
      "address": "700 Fatherland St, Nashville",
      "location": {
        "lat": 36.1713889,
        "lng": -86.7588889
      },
      "place_id": "ChIJEdheMTRmZIgRA0CapUw9w4o"
    },
    {
      "name": "Radical Rabbit",
      "address": "975 Main St, Nashville",
      "location": {
        "lat": 36.1783046,
        "lng": -86.75229619999999
      },
      "place_id": "ChIJ1Y7DuBplZIgR-bgzozgMjbM"
    },
    {
      "name": "Guerilla Bizkits",
      "address": "1006 Fatherland St Suite 207, Nashville",
      "location": {
        "lat": 36.1739009,
        "lng": -86.7509755
      },
      "place_id": "ChIJy85GB7RnZIgRBHEAyv7lW3E"
    },
    {
      "name": "All-Day Caf\u00e9 at Waymore's",
      "address": "811 Main St, Nashville",
      "location": {
        "lat": 36.1759363,
        "lng": -86.757756
      },
      "place_id": "ChIJYwlL-ztnZIgRp7wFNOpzYdg"
    },
    {
      "name": "Love Olive Kitchen",
      "address": "975 Main St # 4, Nashville",
      "location": {
        "lat": 36.17827390000001,
        "lng": -86.7523765
      },
      "place_id": "ChIJVVXFec1nZIgRJABkn1xT_bA"
    },
    {
      "name": "Meridian Street Caf\u00e9 & Bar",
      "address": "1800 Dickerson Pike, Nashville",
      "location": {
        "lat": 36.2040328,
        "lng": -86.7692544
      },
      "place_id": "ChIJl6IU5rBnZIgR-3f0sijUt-4"
    },
    {
      "name": "Fancypants",
      "address": "921 Dickerson Pike, Nashville",
      "location": {
        "lat": 36.1884827,
        "lng": -86.7728119
      },
      "place_id": "ChIJWde5MABnZIgRNkOPjuuTm5c"
    },
    {
      "name": "Suite Twelve25",
      "address": "1225 Meridian St, Nashville",
      "location": {
        "lat": 36.1938336,
        "lng": -86.76669369999999
      },
      "place_id": "ChIJCUnYPXpnZIgRPKsoW7I4xzQ"
    },
    {
      "name": "Lil Cee's",
      "address": "605 Douglas Ave, Nashville",
      "location": {
        "lat": 36.19403459999999,
        "lng": -86.75969189999999
      },
      "place_id": "ChIJq_ME5cBnZIgRGGk_3LRt5hU"
    },
    {
      "name": "Kisser",
      "address": "747 Douglas Ave, Nashville",
      "location": {
        "lat": 36.1938369,
        "lng": -86.75384559999999
      },
      "place_id": "ChIJFWmibsVnZIgRl-ylIKaFJeU"
    },
    {
      "name": "Midtown Cafe",
      "address": "102 19th Ave S, Nashville",
      "location": {
        "lat": 36.151947,
        "lng": -86.79696969999999
      },
      "place_id": "ChIJgaNOeJRmZIgR-rDDgsDqPbc"
    },
    {
      "name": "AVO",
      "address": "4 City Blvd #104, Nashville",
      "location": {
        "lat": 36.1520766,
        "lng": -86.81953039999999
      },
      "place_id": "ChIJQXiH47RmZIgRoxorPavBRyo"
    },
    {
      "name": "Vegelicious, LLC",
      "address": "513B Fisk St, Nashville",
      "location": {
        "lat": 36.1603791,
        "lng": -86.80065049999999
      },
      "place_id": "ChIJ9a2-wgRnZIgRNoP7ekvvQgM"
    },
    {
      "name": "Central Bar + Kitchen",
      "address": "2555 West End Avenue, Nashville",
      "location": {
        "lat": 36.1451483,
        "lng": -86.80921769999999
      },
      "place_id": "ChIJ3-snKbtmZIgR2tWOBKQgwTE"
    },
    {
      "name": "Hattie B's Hot Chicken - Nashville - Midtown",
      "address": "112 19th Ave S, Nashville",
      "location": {
        "lat": 36.151469,
        "lng": -86.7966026
      },
      "place_id": "ChIJSbQCipNmZIgRm4c6Nz9sGaE"
    },
    {
      "name": "Midtown Cafe",
      "address": "102 19th Ave S, Nashville",
      "location": {
        "lat": 36.151947,
        "lng": -86.79696969999999
      },
      "place_id": "ChIJgaNOeJRmZIgR-rDDgsDqPbc"
    },
    {
      "name": "AVO",
      "address": "4 City Blvd #104, Nashville",
      "location": {
        "lat": 36.1520766,
        "lng": -86.81953039999999
      },
      "place_id": "ChIJQXiH47RmZIgRoxorPavBRyo"
    },
    {
      "name": "Vegelicious, LLC",
      "address": "513B Fisk St, Nashville",
      "location": {
        "lat": 36.1603791,
        "lng": -86.80065049999999
      },
      "place_id": "ChIJ9a2-wgRnZIgRNoP7ekvvQgM"
    },
    {
      "name": "Central Bar + Kitchen",
      "address": "2555 West End Avenue, Nashville",
      "location": {
        "lat": 36.1451483,
        "lng": -86.80921769999999
      },
      "place_id": "ChIJ3-snKbtmZIgR2tWOBKQgwTE"
    },
    {
      "name": "Hattie B's Hot Chicken - Nashville - Midtown",
      "address": "112 19th Ave S, Nashville",
      "location": {
        "lat": 36.151469,
        "lng": -86.7966026
      },
      "place_id": "ChIJSbQCipNmZIgRm4c6Nz9sGaE"
    },
    {
      "name": "The Yellow Table Caf\u00e9",
      "address": "1101 Chapel Ave #107, Nashville",
      "location": {
        "lat": 36.1889221,
        "lng": -86.7378627
      },
      "place_id": "ChIJwWmf0htpZIgRp5NY_MSLRKw"
    },
    {
      "name": "Cafe Roze",
      "address": "1115 Porter Rd, Nashville",
      "location": {
        "lat": 36.1885958,
        "lng": -86.7291202
      },
      "place_id": "ChIJT-JXAG9oZIgReXQDEafdpIE"
    },
    {
      "name": "Graze Nashville",
      "address": "1888 Eastland Ave, Nashville",
      "location": {
        "lat": 36.1823472,
        "lng": -86.7355754
      },
      "place_id": "ChIJK8I1wXtoZIgRUY-lCBNULSo"
    },
    {
      "name": "Noko",
      "address": "701 Porter Rd, Nashville",
      "location": {
        "lat": 36.1825877,
        "lng": -86.732717
      },
      "place_id": "ChIJSf0U2fdpZIgRJ5adKZHG0Bg"
    },
    {
      "name": "Lockeland Table",
      "address": "1520 Woodland St, Nashville",
      "location": {
        "lat": 36.1767472,
        "lng": -86.7420314
      },
      "place_id": "ChIJ5c8HXdVnZIgRCaINuy6gsLc"
    },
    {
      "name": "Puckett's Restaurant",
      "address": "500 Church St, Nashville",
      "location": {
        "lat": 36.1632246,
        "lng": -86.78046309999999
      },
      "place_id": "ChIJjYUYWVhmZIgRizOTUrFR_1M"
    },
    {
      "name": "Copper Branch Vegan & Vegetarian Restaurant",
      "address": "601 Church St, Nashville",
      "location": {
        "lat": 36.1624728,
        "lng": -86.7815954
      },
      "place_id": "ChIJfXmNtc9nZIgRa_Acmw7c6N0"
    },
    {
      "name": "Two Hands",
      "address": "606 8th Ave S, Nashville",
      "location": {
        "lat": 36.151472,
        "lng": -86.77913819999999
      },
      "place_id": "ChIJO71UejhnZIgRiJMuLJSuVtw"
    },
    {
      "name": "The Restaurant at W Nashville",
      "address": "300 12th Ave S, Nashville",
      "location": {
        "lat": 36.1535962,
        "lng": -86.7853475
      },
      "place_id": "ChIJnZY3gGpnZIgRtElSUKUkxsA"
    },
    {
      "name": "Milk & Honey Gulch",
      "address": "214 11th Ave S, Nashville",
      "location": {
        "lat": 36.1547229,
        "lng": -86.78455389999999
      },
      "place_id": "ChIJCUldzfRmZIgRTdc-qk-jhFo"
    },
    {
      "name": "Midtown Cafe",
      "address": "102 19th Ave S, Nashville",
      "location": {
        "lat": 36.151947,
        "lng": -86.79696969999999
      },
      "place_id": "ChIJgaNOeJRmZIgR-rDDgsDqPbc"
    },
    {
      "name": "AVO",
      "address": "4 City Blvd #104, Nashville",
      "location": {
        "lat": 36.1520766,
        "lng": -86.81953039999999
      },
      "place_id": "ChIJQXiH47RmZIgRoxorPavBRyo"
    },
    {
      "name": "Urban Grub",
      "address": "2506 12th Ave S, Nashville",
      "location": {
        "lat": 36.124974,
        "lng": -86.789155
      },
      "place_id": "ChIJI8ZqVC5kZIgRTUtWeHRCw8s"
    },
    {
      "name": "Central Bar + Kitchen",
      "address": "2555 West End Avenue, Nashville",
      "location": {
        "lat": 36.1451483,
        "lng": -86.80921769999999
      },
      "place_id": "ChIJ3-snKbtmZIgR2tWOBKQgwTE"
    },
    {
      "name": "The Henry",
      "address": "2803 12th Ave S #105, Nashville",
      "location": {
        "lat": 36.1221729,
        "lng": -86.790554
      },
      "place_id": "ChIJ_1hEpsdlZIgRHfem9-ct9s8"
    },
    {
      "name": "Two Hands",
      "address": "606 8th Ave S, Nashville",
      "location": {
        "lat": 36.151472,
        "lng": -86.77913819999999
      },
      "place_id": "ChIJO71UejhnZIgRiJMuLJSuVtw"
    },
    {
      "name": "Sky Blue Cafe",
      "address": "700 Fatherland St, Nashville",
      "location": {
        "lat": 36.1713889,
        "lng": -86.7588889
      },
      "place_id": "ChIJEdheMTRmZIgRA0CapUw9w4o"
    },
    {
      "name": "Kosho by Tabu",
      "address": "538 6th Ave S, Nashville",
      "location": {
        "lat": 36.1539071,
        "lng": -86.7758178
      },
      "place_id": "ChIJ__9zQ2dmZIgRdQWSJA-nB5g"
    },
    {
      "name": "Germantown Caf\u00e9",
      "address": "1200 5th Ave N, Nashville",
      "location": {
        "lat": 36.175456,
        "lng": -86.78786
      },
      "place_id": "ChIJHWNN6v1mZIgRcT3pJLUiyt4"
    },
    {
      "name": "Toastique",
      "address": "820 4th Ave N #127, Nashville",
      "location": {
        "lat": 36.1716297,
        "lng": -86.7840609
      },
      "place_id": "ChIJ_3LrfQBnZIgRKSEMc6_vzmQ"
    },
    {
      "name": "Two Hands",
      "address": "606 8th Ave S, Nashville",
      "location": {
        "lat": 36.151472,
        "lng": -86.77913819999999
      },
      "place_id": "ChIJO71UejhnZIgRiJMuLJSuVtw"
    },
    {
      "name": "Copper Branch Vegan & Vegetarian Restaurant",
      "address": "601 Church St, Nashville",
      "location": {
        "lat": 36.1624728,
        "lng": -86.7815954
      },
      "place_id": "ChIJfXmNtc9nZIgRa_Acmw7c6N0"
    },
    {
      "name": "The Restaurant at W Nashville",
      "address": "300 12th Ave S, Nashville",
      "location": {
        "lat": 36.1535962,
        "lng": -86.7853475
      },
      "place_id": "ChIJnZY3gGpnZIgRtElSUKUkxsA"
    },
    {
      "name": "The Diner Nashville",
      "address": "200 3rd Ave S, Nashville",
      "location": {
        "lat": 36.1594741,
        "lng": -86.7744708
      },
      "place_id": "ChIJ5wpyfVxmZIgRzqgMZq_erNY"
    },
    {
      "name": "Caf\u00e9 Intermezzo - Nashville",
      "address": "205 Demonbreun Street, 2nd Ave S, Nashville",
      "location": {
        "lat": 36.1596758,
        "lng": -86.7739359
      },
      "place_id": "ChIJX1dYu6BnZIgRZzGfgsep0Vo"
    },
    {
      "name": "Caf\u00e9 Intermezzo - Nashville",
      "address": "205 Demonbreun Street, 2nd Ave S, Nashville",
      "location": {
        "lat": 36.1596758,
        "lng": -86.7739359
      },
      "place_id": "ChIJX1dYu6BnZIgRZzGfgsep0Vo"
    },
    {
      "name": "Noir Kitchen & Cocktails",
      "address": "501 Main St, Nashville",
      "location": {
        "lat": 36.1730699,
        "lng": -86.765289
      },
      "place_id": "ChIJRcFPe9pnZIgR-eUETDGMbnw"
    },
    {
      "name": "Vegelicious, LLC",
      "address": "513B Fisk St, Nashville",
      "location": {
        "lat": 36.1603791,
        "lng": -86.80065049999999
      },
      "place_id": "ChIJ9a2-wgRnZIgRNoP7ekvvQgM"
    },
    {
      "name": "Copper Branch Vegan & Vegetarian Restaurant",
      "address": "601 Church St, Nashville",
      "location": {
        "lat": 36.1624728,
        "lng": -86.7815954
      },
      "place_id": "ChIJfXmNtc9nZIgRa_Acmw7c6N0"
    },
    {
      "name": "Listening Room Cafe - Nashville",
      "address": "618 4th Ave S, Nashville",
      "location": {
        "lat": 36.153835,
        "lng": -86.772268
      },
      "place_id": "ChIJG76prYpmZIgRyssMAJAeQhk"
    },
    {
      "name": "Cascades American Cafe",
      "address": "2800 Opryland Dr, Nashville",
      "location": {
        "lat": 36.212239,
        "lng": -86.6961707
      },
      "place_id": "ChIJRWn_ndFpZIgRbAhALDeYmgQ"
    },
    {
      "name": "Rainforest Cafe",
      "address": "353 Opry Mills Dr, Nashville",
      "location": {
        "lat": 36.2001944,
        "lng": -86.69168479999999
      },
      "place_id": "ChIJO2o9Xs5pZIgR-RE8pwJUuLw"
    },
    {
      "name": "Aquarium Restaurant",
      "address": "516 Opry Mills Dr, Nashville",
      "location": {
        "lat": 36.2055058,
        "lng": -86.69387689999999
      },
      "place_id": "ChIJf0kSAc9pZIgRuzxmUB_-bDs"
    },
    {
      "name": "Midtown Cafe",
      "address": "102 19th Ave S, Nashville",
      "location": {
        "lat": 36.151947,
        "lng": -86.79696969999999
      },
      "place_id": "ChIJgaNOeJRmZIgR-rDDgsDqPbc"
    },
    {
      "name": "Puckett's Restaurant",
      "address": "500 Church St, Nashville",
      "location": {
        "lat": 36.1632246,
        "lng": -86.78046309999999
      },
      "place_id": "ChIJjYUYWVhmZIgRizOTUrFR_1M"
    },
    {
      "name": "Copper Branch Vegan & Vegetarian Restaurant",
      "address": "601 Church St, Nashville",
      "location": {
        "lat": 36.1624728,
        "lng": -86.7815954
      },
      "place_id": "ChIJfXmNtc9nZIgRa_Acmw7c6N0"
    },
    {
      "name": "Two Hands",
      "address": "606 8th Ave S, Nashville",
      "location": {
        "lat": 36.151472,
        "lng": -86.77913819999999
      },
      "place_id": "ChIJO71UejhnZIgRiJMuLJSuVtw"
    },
    {
      "name": "The Restaurant at W Nashville",
      "address": "300 12th Ave S, Nashville",
      "location": {
        "lat": 36.1535962,
        "lng": -86.7853475
      },
      "place_id": "ChIJnZY3gGpnZIgRtElSUKUkxsA"
    },
    {
      "name": "Two Hands",
      "address": "606 8th Ave S, Nashville",
      "location": {
        "lat": 36.151472,
        "lng": -86.77913819999999
      },
      "place_id": "ChIJO71UejhnZIgRiJMuLJSuVtw"
    },
    {
      "name": "Copper Branch Vegan & Vegetarian Restaurant",
      "address": "601 Church St, Nashville",
      "location": {
        "lat": 36.1624728,
        "lng": -86.7815954
      },
      "place_id": "ChIJfXmNtc9nZIgRa_Acmw7c6N0"
    },
    {
      "name": "The Restaurant at W Nashville",
      "address": "300 12th Ave S, Nashville",
      "location": {
        "lat": 36.1535962,
        "lng": -86.7853475
      },
      "place_id": "ChIJnZY3gGpnZIgRtElSUKUkxsA"
    },
    {
      "name": "The Diner Nashville",
      "address": "200 3rd Ave S, Nashville",
      "location": {
        "lat": 36.1594741,
        "lng": -86.7744708
      },
      "place_id": "ChIJ5wpyfVxmZIgRzqgMZq_erNY"
    },
    {
      "name": "Caf\u00e9 Intermezzo - Nashville",
      "address": "205 Demonbreun Street, 2nd Ave S, Nashville",
      "location": {
        "lat": 36.1596758,
        "lng": -86.7739359
      },
      "place_id": "ChIJX1dYu6BnZIgRZzGfgsep0Vo"
    },
    {
      "name": "Two Hands",
      "address": "606 8th Ave S, Nashville",
      "location": {
        "lat": 36.151472,
        "lng": -86.77913819999999
      },
      "place_id": "ChIJO71UejhnZIgRiJMuLJSuVtw"
    },
    {
      "name": "Milk & Honey Gulch",
      "address": "214 11th Ave S, Nashville",
      "location": {
        "lat": 36.1547229,
        "lng": -86.78455389999999
      },
      "place_id": "ChIJCUldzfRmZIgRTdc-qk-jhFo"
    },
    {
      "name": "Frothy Monkey",
      "address": "235 Rep. John Lewis Way N, Nashville",
      "location": {
        "lat": 36.1640461,
        "lng": -86.78104760000001
      },
      "place_id": "ChIJY4sLblhmZIgRda5fK0HRa4c"
    },
    {
      "name": "Maiz De La Vida Restaurant",
      "address": "606 8th Ave S store 100, Nashville",
      "location": {
        "lat": 36.15129,
        "lng": -86.77881239999999
      },
      "place_id": "ChIJIY6P5RpnZIgRJP8TJ84SX3o"
    },
    {
      "name": "417 Union",
      "address": "417 Union St, Nashville",
      "location": {
        "lat": 36.1645791,
        "lng": -86.7803802
      },
      "place_id": "ChIJxYzaO1hmZIgROwZYPkIWqpI"
    },
    {
      "name": "Copper Branch Vegan & Vegetarian Restaurant",
      "address": "601 Church St, Nashville",
      "location": {
        "lat": 36.1624728,
        "lng": -86.7815954
      },
      "place_id": "ChIJfXmNtc9nZIgRa_Acmw7c6N0"
    },
    {
      "name": "Puckett's Restaurant",
      "address": "500 Church St, Nashville",
      "location": {
        "lat": 36.1632246,
        "lng": -86.78046309999999
      },
      "place_id": "ChIJjYUYWVhmZIgRizOTUrFR_1M"
    },
    {
      "name": "Two Hands",
      "address": "606 8th Ave S, Nashville",
      "location": {
        "lat": 36.151472,
        "lng": -86.77913819999999
      },
      "place_id": "ChIJO71UejhnZIgRiJMuLJSuVtw"
    },
    {
      "name": "The Restaurant at W Nashville",
      "address": "300 12th Ave S, Nashville",
      "location": {
        "lat": 36.1535962,
        "lng": -86.7853475
      },
      "place_id": "ChIJnZY3gGpnZIgRtElSUKUkxsA"
    },
    {
      "name": "The Diner Nashville",
      "address": "200 3rd Ave S, Nashville",
      "location": {
        "lat": 36.1594741,
        "lng": -86.7744708
      },
      "place_id": "ChIJ5wpyfVxmZIgRzqgMZq_erNY"
    },
    {
      "name": "Two Hands",
      "address": "606 8th Ave S, Nashville",
      "location": {
        "lat": 36.151472,
        "lng": -86.77913819999999
      },
      "place_id": "ChIJO71UejhnZIgRiJMuLJSuVtw"
    },
    {
      "name": "Puckett's Restaurant",
      "address": "500 Church St, Nashville",
      "location": {
        "lat": 36.1632246,
        "lng": -86.78046309999999
      },
      "place_id": "ChIJjYUYWVhmZIgRizOTUrFR_1M"
    },
    {
      "name": "Milk & Honey Gulch",
      "address": "214 11th Ave S, Nashville",
      "location": {
        "lat": 36.1547229,
        "lng": -86.78455389999999
      },
      "place_id": "ChIJCUldzfRmZIgRTdc-qk-jhFo"
    },
    {
      "name": "Assembly Food Hall",
      "address": "5055 Broadway, Nashville",
      "location": {
        "lat": 36.160861,
        "lng": -86.7790533
      },
      "place_id": "ChIJryDB4Q1nZIgR7ToLmwlalqY"
    },
    {
      "name": "Library Restaurant & Lounge",
      "address": "623 Union St First Floor, Nashville",
      "location": {
        "lat": 36.1629899,
        "lng": -86.7828827
      },
      "place_id": "ChIJb8b6tfdmZIgRWlklV5-5NXU"
    },
    {
      "name": "The Picnic Cafe & Party Catering",
      "address": "6000 TN-100, Nashville",
      "location": {
        "lat": 36.0980259,
        "lng": -86.8732565
      },
      "place_id": "ChIJ-yCegdtjZIgROQ5PzPkjoM4"
    },
    {
      "name": "Roze Pony",
      "address": "5133 Harding Pike, Nashville",
      "location": {
        "lat": 36.1036867,
        "lng": -86.86910370000001
      },
      "place_id": "ChIJYUzkWzxjZIgRSTzZA_8zcCo"
    },
    {
      "name": "Sam's Place Belle Meade",
      "address": "6051 TN-100, Nashville",
      "location": {
        "lat": 36.0969836,
        "lng": -86.87258820000001
      },
      "place_id": "ChIJDYxB-1liZIgRdyxDs7nwq1E"
    },
    {
      "name": "Waldo's Chicken & Beer",
      "address": "5316 Harding Pike, Nashville",
      "location": {
        "lat": 36.1005267,
        "lng": -86.87134239999999
      },
      "place_id": "ChIJFbq0NRxjZIgRIKvNbT4oPhg"
    },
    {
      "name": "360 Bistro",
      "address": "6000 TN-100, Nashville",
      "location": {
        "lat": 36.0978843,
        "lng": -86.87337699999999
      },
      "place_id": "ChIJPcutilliZIgREuGmh3QPOaA"
    },
    {
      "name": "Roze Pony",
      "address": "5133 Harding Pike, Nashville",
      "location": {
        "lat": 36.1036867,
        "lng": -86.86910370000001
      },
      "place_id": "ChIJYUzkWzxjZIgRSTzZA_8zcCo"
    },
    {
      "name": "Sam's Place Belle Meade",
      "address": "6051 TN-100, Nashville",
      "location": {
        "lat": 36.0969836,
        "lng": -86.87258820000001
      },
      "place_id": "ChIJDYxB-1liZIgRdyxDs7nwq1E"
    },
    {
      "name": "Belle Meade Meat & Three",
      "address": "110 Leake Ave, Nashville",
      "location": {
        "lat": 36.1045437,
        "lng": -86.86546050000001
      },
      "place_id": "ChIJeZEeziljZIgRYXy4EQPZJ9w"
    },
    {
      "name": "Sperry's Belle Meade",
      "address": "5109 Harding Pike, Nashville",
      "location": {
        "lat": 36.1048206,
        "lng": -86.8684974
      },
      "place_id": "ChIJDXGTQk5iZIgR-41hOZQnHPk"
    },
    {
      "name": "360 Bistro",
      "address": "6000 TN-100, Nashville",
      "location": {
        "lat": 36.0978843,
        "lng": -86.87337699999999
      },
      "place_id": "ChIJPcutilliZIgREuGmh3QPOaA"
    },
    {
      "name": "Midtown Cafe",
      "address": "102 19th Ave S, Nashville",
      "location": {
        "lat": 36.151947,
        "lng": -86.79696969999999
      },
      "place_id": "ChIJgaNOeJRmZIgR-rDDgsDqPbc"
    },
    {
      "name": "The Diner Nashville",
      "address": "200 3rd Ave S, Nashville",
      "location": {
        "lat": 36.1594741,
        "lng": -86.7744708
      },
      "place_id": "ChIJ5wpyfVxmZIgRzqgMZq_erNY"
    },
    {
      "name": "Puckett's Restaurant",
      "address": "500 Church St, Nashville",
      "location": {
        "lat": 36.1632246,
        "lng": -86.78046309999999
      },
      "place_id": "ChIJjYUYWVhmZIgRizOTUrFR_1M"
    },
    {
      "name": "Copper Branch Vegan & Vegetarian Restaurant",
      "address": "601 Church St, Nashville",
      "location": {
        "lat": 36.1624728,
        "lng": -86.7815954
      },
      "place_id": "ChIJfXmNtc9nZIgRa_Acmw7c6N0"
    },
    {
      "name": "Two Hands",
      "address": "606 8th Ave S, Nashville",
      "location": {
        "lat": 36.151472,
        "lng": -86.77913819999999
      },
      "place_id": "ChIJO71UejhnZIgRiJMuLJSuVtw"
    },
    {
      "name": "Cascades American Cafe",
      "address": "2800 Opryland Dr, Nashville",
      "location": {
        "lat": 36.212239,
        "lng": -86.6961707
      },
      "place_id": "ChIJRWn_ndFpZIgRbAhALDeYmgQ"
    },
    {
      "name": "Paula Deen's Family Kitchen",
      "address": "575 Opry Mills Dr, Nashville",
      "location": {
        "lat": 36.2028191,
        "lng": -86.6949753
      },
      "place_id": "ChIJReTvQcNpZIgRBC1NlaG_e2c"
    },
    {
      "name": "Jack Daniel's",
      "address": "2800 Opryland Dr, Nashville",
      "location": {
        "lat": 36.2122211,
        "lng": -86.69327609999999
      },
      "place_id": "ChIJVVVVqdZpZIgRCbx2EOJgUSE"
    },
    {
      "name": "Aquarium Restaurant",
      "address": "516 Opry Mills Dr, Nashville",
      "location": {
        "lat": 36.2055058,
        "lng": -86.69387689999999
      },
      "place_id": "ChIJf0kSAc9pZIgRuzxmUB_-bDs"
    },
    {
      "name": "The Bistro - Eat. Drink. Connect.\u00ae",
      "address": "125 Music City Cir, Nashville",
      "location": {
        "lat": 36.2227587,
        "lng": -86.6970801
      },
      "place_id": "ChIJlzmVpX5CZIgRF2klnOiC79A"
    },
    {
      "name": "Two Hands",
      "address": "606 8th Ave S, Nashville",
      "location": {
        "lat": 36.151472,
        "lng": -86.77913819999999
      },
      "place_id": "ChIJO71UejhnZIgRiJMuLJSuVtw"
    },
    {
      "name": "Copper Branch Vegan & Vegetarian Restaurant",
      "address": "601 Church St, Nashville",
      "location": {
        "lat": 36.1624728,
        "lng": -86.7815954
      },
      "place_id": "ChIJfXmNtc9nZIgRa_Acmw7c6N0"
    },
    {
      "name": "The Restaurant at W Nashville",
      "address": "300 12th Ave S, Nashville",
      "location": {
        "lat": 36.1535962,
        "lng": -86.7853475
      },
      "place_id": "ChIJnZY3gGpnZIgRtElSUKUkxsA"
    },
    {
      "name": "The Diner Nashville",
      "address": "200 3rd Ave S, Nashville",
      "location": {
        "lat": 36.1594741,
        "lng": -86.7744708
      },
      "place_id": "ChIJ5wpyfVxmZIgRzqgMZq_erNY"
    },
    {
      "name": "Caf\u00e9 Intermezzo - Nashville",
      "address": "205 Demonbreun Street, 2nd Ave S, Nashville",
      "location": {
        "lat": 36.1596758,
        "lng": -86.7739359
      },
      "place_id": "ChIJX1dYu6BnZIgRZzGfgsep0Vo"
    },
    {
      "name": "four daughters market",
      "address": "141 Charles E Davis Blvd, Nashville",
      "location": {
        "lat": 36.1534252,
        "lng": -86.7615534
      },
      "place_id": "ChIJRc0MMM5nZIgRWZsT6trLP2w"
    },
    {
      "name": "The Diner Nashville",
      "address": "200 3rd Ave S, Nashville",
      "location": {
        "lat": 36.1594741,
        "lng": -86.7744708
      },
      "place_id": "ChIJ5wpyfVxmZIgRzqgMZq_erNY"
    },
    {
      "name": "Two Hands",
      "address": "606 8th Ave S, Nashville",
      "location": {
        "lat": 36.151472,
        "lng": -86.77913819999999
      },
      "place_id": "ChIJO71UejhnZIgRiJMuLJSuVtw"
    },
    {
      "name": "Caf\u00e9 Intermezzo - Nashville",
      "address": "205 Demonbreun Street, 2nd Ave S, Nashville",
      "location": {
        "lat": 36.1596758,
        "lng": -86.7739359
      },
      "place_id": "ChIJX1dYu6BnZIgRZzGfgsep0Vo"
    },
    {
      "name": "Twisted Tenders",
      "address": "111 Broadway, Nashville",
      "location": {
        "lat": 36.1615201,
        "lng": -86.77463240000002
      },
      "place_id": "ChIJ_84SO3lnZIgRMd5WOezMQYo"
    },
    {
      "name": "Two Hands",
      "address": "606 8th Ave S, Nashville",
      "location": {
        "lat": 36.151472,
        "lng": -86.77913819999999
      },
      "place_id": "ChIJO71UejhnZIgRiJMuLJSuVtw"
    },
    {
      "name": "Copper Branch Vegan & Vegetarian Restaurant",
      "address": "601 Church St, Nashville",
      "location": {
        "lat": 36.1624728,
        "lng": -86.7815954
      },
      "place_id": "ChIJfXmNtc9nZIgRa_Acmw7c6N0"
    },
    {
      "name": "The Restaurant at W Nashville",
      "address": "300 12th Ave S, Nashville",
      "location": {
        "lat": 36.1535962,
        "lng": -86.7853475
      },
      "place_id": "ChIJnZY3gGpnZIgRtElSUKUkxsA"
    },
    {
      "name": "The Diner Nashville",
      "address": "200 3rd Ave S, Nashville",
      "location": {
        "lat": 36.1594741,
        "lng": -86.7744708
      },
      "place_id": "ChIJ5wpyfVxmZIgRzqgMZq_erNY"
    },
    {
      "name": "Radish Kitchen",
      "address": "5055 Broadway, Nashville",
      "location": {
        "lat": 36.1605243,
        "lng": -86.7795737
      },
      "place_id": "ChIJLQlFTyZnZIgR1BgyjCiVX9s"
    },
    {
      "name": "four daughters market",
      "address": "141 Charles E Davis Blvd, Nashville",
      "location": {
        "lat": 36.1534252,
        "lng": -86.7615534
      },
      "place_id": "ChIJRc0MMM5nZIgRWZsT6trLP2w"
    },
    {
      "name": "Copper Branch Vegan & Vegetarian Restaurant",
      "address": "601 Church St, Nashville",
      "location": {
        "lat": 36.1624728,
        "lng": -86.7815954
      },
      "place_id": "ChIJfXmNtc9nZIgRa_Acmw7c6N0"
    },
    {
      "name": "The Diner Nashville",
      "address": "200 3rd Ave S, Nashville",
      "location": {
        "lat": 36.1594741,
        "lng": -86.7744708
      },
      "place_id": "ChIJ5wpyfVxmZIgRzqgMZq_erNY"
    },
    {
      "name": "Midtown Cafe",
      "address": "102 19th Ave S, Nashville",
      "location": {
        "lat": 36.151947,
        "lng": -86.79696969999999
      },
      "place_id": "ChIJgaNOeJRmZIgR-rDDgsDqPbc"
    },
    {
      "name": "Peace Love and Grub",
      "address": "Nashville",
      "location": {
        "lat": 36.1626638,
        "lng": -86.7816016
      },
      "place_id": "ChIJacxEUjJnZIgRDsyvROaZ8M8"
    },
    {
      "name": "Rainforest Cafe",
      "address": "353 Opry Mills Dr, Nashville",
      "location": {
        "lat": 36.2001944,
        "lng": -86.69168479999999
      },
      "place_id": "ChIJO2o9Xs5pZIgR-RE8pwJUuLw"
    },
    {
      "name": "Cascades American Cafe",
      "address": "2800 Opryland Dr, Nashville",
      "location": {
        "lat": 36.212239,
        "lng": -86.6961707
      },
      "place_id": "ChIJRWn_ndFpZIgRbAhALDeYmgQ"
    },
    {
      "name": "Paula Deen's Family Kitchen",
      "address": "575 Opry Mills Dr, Nashville",
      "location": {
        "lat": 36.2028191,
        "lng": -86.6949753
      },
      "place_id": "ChIJReTvQcNpZIgRBC1NlaG_e2c"
    },
    {
      "name": "Jack Daniel's",
      "address": "2800 Opryland Dr, Nashville",
      "location": {
        "lat": 36.2122211,
        "lng": -86.69327609999999
      },
      "place_id": "ChIJVVVVqdZpZIgRCbx2EOJgUSE"
    },
    {
      "name": "Aquarium Restaurant",
      "address": "516 Opry Mills Dr, Nashville",
      "location": {
        "lat": 36.2055058,
        "lng": -86.69387689999999
      },
      "place_id": "ChIJf0kSAc9pZIgRuzxmUB_-bDs"
    }
  ]
}